City_ID,City,Lat,Lng,Max Temp,Humidity,Cloudiness,Wind Speed,Country,Date
0,college,64.8569,-147.8028,53.55,86,75,12.66,US,1693884541
1,waitangi,-43.9535,-176.5597,54.82,80,100,4.0,NZ,1693884541
2,port-aux-francais,-49.35,70.2167,33.6,60,99,25.23,TF,1693884541
3,hermanus,-34.4187,19.2345,42.8,81,82,12.53,ZA,1693884541
4,hawaiian paradise park,19.5933,-154.9731,81.03,81,100,9.22,US,1693884542
5,papatowai,-46.5619,169.4708,56.3,68,99,6.96,NZ,1693884542
6,adamstown,-25.066,-130.1015,70.27,88,98,15.86,PN,1693884542
7,taybad,34.74,60.7756,70.3,28,0,10.45,IR,1693884542
8,grytviken,-54.2811,-36.5092,23.9,89,43,6.71,GS,1693884542
9,kulhudhuffushi,6.6221,73.07,81.95,76,100,14.32,MV,1693884543
10,saint-pierre,-21.3393,55.4781,69.57,68,0,5.75,RE,1693884543
11,yellowknife,62.456,-114.3525,46.92,61,75,4.61,CA,1693884337
12,ciudad lazaro cardenas,17.9583,-102.2,80.98,79,98,2.8,MX,1693884543
13,crane,31.3974,-102.3501,90.27,25,7,17.05,US,1693884543
14,edinburgh of the seven seas,-37.0676,-12.3116,56.19,86,94,25.9,SH,1693884544
15,albany,42.6001,-73.9662,74.57,91,0,1.99,US,1693884320
16,kapuskasing,49.4169,-82.4331,73.49,83,40,5.75,CA,1693884544
17,saipan,15.1355,145.701,90.3,100,40,11.5,MP,1693884544
18,calvinia,-31.4707,19.776,38.25,82,100,10.87,ZA,1693884544
19,mangualde,40.6043,-7.7612,62.74,87,97,4.27,PT,1693884545
20,alice springs,-23.7,133.8833,78.35,19,0,8.05,AU,1693884545
21,blackmans bay,-43.0167,147.3167,59.7,53,12,4.88,AU,1693884545
22,laguna,38.421,-121.4238,79.14,55,0,12.66,US,1693884545
23,kermanshah,34.3142,47.065,58.1,23,0,0.0,IR,1693884546
24,fale old settlement,-9.3852,-171.2468,82.56,76,12,14.97,TK,1693884546
25,jerez de garcia salinas,22.65,-103.0,77.16,36,20,5.55,MX,1693884546
26,montrose,38.4166,-108.2673,62.01,38,2,5.73,US,1693884528
27,myshkin,57.7897,38.4545,58.08,78,59,4.34,RU,1693884547
28,al jawf,29.5,38.75,83.32,17,24,6.2,SA,1693884547
29,vorgashor,67.5833,63.95,49.6,65,15,6.93,RU,1693884547
30,stanley,54.868,-1.6985,55.78,100,7,1.14,GB,1693884547
31,thinadhoo,0.5333,72.9333,83.03,71,82,10.65,MV,1693884547
32,loen,7.7601,168.2307,84.18,76,99,10.38,MH,1693884548
33,puerto natales,-51.7236,-72.4875,28.96,87,100,2.64,CL,1693884548
34,st. john's,47.5649,-52.7093,60.15,96,75,6.91,CA,1693884548
35,novyy urengoy,66.0833,76.6333,47.17,68,16,7.11,RU,1693884548
36,chonchi,-42.6128,-73.8092,36.61,97,15,1.61,CL,1693884548
37,verkhov'ye,52.8119,37.2425,58.8,72,100,8.88,RU,1693884549
38,khilok,51.3674,110.4676,70.77,46,25,2.66,RU,1693884549
39,puerto ayora,-0.7393,-90.3518,74.55,92,36,5.99,EC,1693884549
40,aguada de pasajeros,22.385,-80.8508,77.4,89,36,3.09,CU,1693884485
41,hamilton,39.1834,-84.5333,80.98,73,0,6.91,US,1693884550
42,newman,37.3138,-121.0208,79.29,43,0,8.1,US,1693884550
43,hilo,19.7297,-155.09,81.28,83,100,9.22,US,1693884389
44,ola,59.5833,151.2833,54.73,62,73,6.6,RU,1693884550
45,qaqortoq,60.7167,-46.0333,45.48,96,100,4.9,GL,1693884550
46,avarua,-21.2078,-159.775,75.25,64,40,14.97,CK,1693884550
47,olonkinbyen,70.9221,-8.7187,38.25,89,100,22.86,SJ,1693884550
48,vadso,70.0744,29.7487,51.96,76,75,14.97,NO,1693884551
49,punta arenas,-53.15,-70.9167,33.12,80,50,3.0,CL,1693884551
50,ust-nera,64.5667,143.2,44.58,76,97,5.21,RU,1693884551
51,taveta,-3.3963,37.6736,68.29,78,95,4.09,KE,1693884552
52,umm qasr,30.0405,47.9168,82.27,16,0,5.64,IQ,1693884552
53,point pedro,9.8167,80.2333,80.91,81,100,17.74,LK,1693884553
54,ta`u,-14.2336,-169.5144,80.29,77,100,20.65,AS,1693884553
55,vilyuchinsk,52.9306,158.4028,64.67,53,100,2.73,RU,1693884553
56,new norfolk,-42.7826,147.0587,60.89,30,24,2.95,AU,1693884553
57,port mathurin,-19.6833,63.4167,71.73,78,61,18.14,MU,1693884554
58,wajir,1.7471,40.0573,73.06,74,32,12.95,KE,1693884554
59,invercargill,-46.4,168.35,59.02,73,32,1.01,NZ,1693884554
60,lihue,21.9789,-159.3672,81.99,72,20,6.91,US,1693884554
61,lompoc,34.6391,-120.4579,63.01,86,100,18.99,US,1693884554
62,kalianget,-7.05,113.9333,81.7,65,29,13.35,ID,1693884554
63,tiksi,71.6872,128.8694,35.53,71,67,7.0,RU,1693884555
64,nova sintra,14.8667,-24.7167,74.55,83,77,4.36,CV,1693884555
65,tolanaro,-25.0319,46.9987,69.87,73,20,2.3,MG,1693884555
66,midvagur,62.0511,-7.1939,52.63,71,100,13.8,FO,1693884555
67,atafu village,-8.5421,-172.5159,82.81,77,8,15.84,TK,1693884378
68,bredasdorp,-34.5322,20.0403,41.38,89,25,9.06,ZA,1693884555
69,bayganin,48.6947,55.8742,62.98,51,51,5.46,KZ,1693884556
70,codrington,-38.2667,141.9667,54.99,47,36,17.02,AU,1693884556
71,fort mcmurray,56.7268,-111.381,45.91,65,0,5.75,CA,1693884556
72,san antonio de pale,-1.4014,5.6325,74.08,88,87,16.24,GQ,1693884556
73,cururupu,-1.8283,-44.8683,77.22,85,7,5.66,BR,1693884305
74,sisimiut,66.9395,-53.6735,43.61,94,100,24.7,GL,1693884556
75,kodiak,57.79,-152.4072,62.11,51,0,8.05,US,1693884557
76,georgetown,5.4112,100.3354,87.94,70,20,2.3,MY,1693884354
77,kisoro,-1.2854,29.685,57.34,87,27,2.75,UG,1693884557
78,bethel,41.3712,-73.414,75.76,86,0,0.0,US,1693884498
79,isangel,-19.55,169.2667,82.51,61,75,10.36,VU,1693884557
80,klyuchi,52.2667,79.1667,54.77,89,98,11.79,RU,1693884558
81,arno,60.1167,18.6333,60.78,89,28,11.68,SE,1693884324
82,zalesovo,53.9939,84.7431,64.29,50,25,15.08,RU,1693884558
83,nanao,37.05,136.9667,88.32,72,73,5.66,JP,1693884559
84,bilibino,68.0546,166.4372,38.75,53,100,8.72,RU,1693884559
85,ribeira grande,38.5167,-28.7,71.78,70,99,13.0,PT,1693884559
86,hobyo,5.3505,48.5268,77.25,77,57,21.25,SO,1693884559
87,tazovsky,67.4667,78.7,44.76,78,23,6.69,RU,1693884560
88,mount isa,-20.7333,139.5,87.57,27,23,9.22,AU,1693884560
89,kirakira,-10.4544,161.9205,80.65,81,91,13.02,SB,1693884320
90,petropavlovsk-kamchatsky,53.0452,158.6483,63.19,45,0,2.24,RU,1693884560
91,ayaviri,-14.8864,-70.5889,46.45,27,82,1.77,PE,1693884561
92,copala,16.65,-98.9833,77.54,93,100,6.98,MX,1693884561
93,bogorodsk,56.1033,43.5158,52.95,94,12,6.17,RU,1693884561
94,belyy yar,53.6039,91.3903,64.29,72,0,4.47,RU,1693884561
95,port elizabeth,-33.918,25.5701,55.69,94,100,13.8,ZA,1693884502
96,isafjordur,66.0755,-23.124,47.61,85,100,10.51,IS,1693884562
97,manga,11.6636,-1.0731,74.26,85,39,6.15,BF,1693884562
98,arteche,12.2645,125.4048,89.42,62,54,6.62,PH,1693884562
99,colonia,50.9333,6.95,68.95,61,0,6.91,DE,1693884454
100,susuman,62.7833,148.1667,52.3,38,21,10.98,RU,1693884563
101,thompson,55.7435,-97.8558,53.76,100,100,0.0,CA,1693884563
102,lata,40.1629,-8.3327,69.82,86,78,7.76,PT,1693884563
103,taesal-li,36.9714,126.4542,78.37,83,92,4.38,KR,1693884564
104,tsiombe,-25.3,45.4833,67.59,70,14,4.09,MG,1693884564
105,enewetak,11.3474,162.3373,84.06,75,98,5.1,MH,1693884565
106,badger,64.8,-147.5333,53.47,84,100,12.66,US,1693884565
107,botshabelo,-29.2702,26.7052,42.17,27,15,4.47,ZA,1693884565
108,zonguldak,41.25,31.8333,57.88,77,87,4.14,TR,1693884565
109,tegueste,28.5167,-16.3167,66.99,87,0,8.05,ES,1693884566
110,suva,-18.1416,178.4415,80.08,74,75,10.36,FJ,1693884566
111,beau vallon,-20.4189,57.6953,71.22,78,40,6.91,MU,1693884566
112,selkirk,50.1436,-96.8845,73.09,85,3,3.0,CA,1693884339
113,mil'kovo,55.6078,37.7956,52.05,78,0,4.14,RU,1693884567
114,hithadhoo,-0.6,73.0833,82.47,74,100,10.92,MV,1693884567
115,san patricio,28.017,-97.5169,86.85,75,54,19.42,US,1693884567
116,margaret river,-33.95,115.0667,61.93,62,87,20.89,AU,1693884568
117,iqaluit,63.7506,-68.5145,38.93,93,100,3.44,CA,1693884568
118,san fernando,15.0286,120.6898,87.53,79,91,8.75,PH,1693884568
119,meadow lake,34.8014,-106.5436,80.08,24,0,7.02,US,1693884568
120,anadyr,64.75,177.4833,48.7,76,75,15.66,RU,1693884569
121,birao,10.2849,22.7882,70.74,96,100,6.73,CF,1693884569
122,beyneu,45.3167,55.2,68.23,42,36,8.46,KZ,1693884569
123,port alfred,-33.5906,26.891,57.18,96,100,4.43,ZA,1693884570
124,jamestown,42.097,-79.2353,72.72,88,0,1.01,US,1693884533
125,mount gambier,-37.8333,140.7667,55.51,43,6,9.82,AU,1693884571
126,anna regina,7.2644,-58.5077,81.48,75,5,8.39,GY,1693884571
127,sterling,39.0062,-77.4286,84.22,65,0,6.91,US,1693884553
128,masterton,-40.9597,175.6575,63.88,76,88,6.71,NZ,1693884571
129,general pinedo,-27.3167,-61.2833,56.98,83,100,4.0,AR,1693884571
130,tofol,5.3248,163.0078,85.78,74,75,3.44,FM,1693884572
131,ghat,24.9647,10.1728,88.93,19,0,4.72,LY,1693884572
132,teshi old town,5.5836,-0.1072,75.7,90,100,10.74,GH,1693884572
133,saudarkrokur,65.7461,-19.6394,44.76,85,93,14.05,IS,1693884572
134,yuci,37.6803,112.7319,80.35,47,0,8.95,CN,1693884572
135,tralee,52.2704,-9.7026,63.5,95,47,7.16,IE,1693884573
136,la ronge,55.1001,-105.2842,50.25,76,75,9.22,CA,1693884573
137,sao vicente,-23.9631,-46.3919,90.27,26,100,1.99,BR,1693884343
138,guanare,9.0418,-69.7421,72.95,97,37,4.05,VE,1693884573
139,austin,30.2672,-97.7431,92.66,57,0,16.11,US,1693884196
140,san pedro pochutla,15.7333,-96.4667,77.72,92,98,4.0,MX,1693884574
141,severo-yeniseyskiy,60.3725,93.0408,58.8,68,2,2.17,RU,1693884574
142,cooma,-36.2333,149.1333,55.33,35,0,17.98,AU,1693884575
143,mangai,-4.05,19.5333,69.57,95,73,1.86,CD,1693884575
144,akrehamn,59.2667,5.1833,61.41,88,86,8.05,NO,1693884575
145,valparaiso,-33.0393,-71.6273,51.44,93,75,6.91,CL,1693884378
146,tazacorte,28.629,-17.9293,72.57,82,0,5.75,ES,1693884576
147,smithers,54.7804,-127.1743,50.32,87,100,3.44,CA,1693884576
148,manta,-0.95,-80.7333,78.01,78,75,11.01,EC,1693884307
149,novocherkassk,47.4181,40.0939,68.05,77,40,15.66,RU,1693884334
150,qamdo,31.1667,97.2333,53.49,50,38,3.89,CN,1693884577
151,longyearbyen,78.2186,15.6401,42.64,100,100,2.3,SJ,1693884577
152,san jose del guaviare,2.5729,-72.6459,73.92,96,96,1.34,CO,1693884577
153,santa maria del oro,25.9333,-105.3667,71.67,26,2,7.92,MX,1693884577
154,boguchany,58.3814,97.4531,63.3,51,100,2.42,RU,1693884577
155,kalmunai,7.4167,81.8167,79.72,74,100,2.98,LK,1693884578
156,vilyuysk,63.7553,121.6247,57.34,44,100,7.81,RU,1693884578
157,san mateo del mar,16.2,-95.0,84.06,73,100,1.72,MX,1693884578
158,quellon,-43.1167,-73.6167,34.05,100,17,0.0,CL,1693884578
159,tobol'sk,58.2,68.2667,48.58,71,100,8.41,RU,1693884579
160,bac lieu,9.285,105.7244,82.2,78,99,11.01,VN,1693884579
161,arar,30.9753,41.0381,80.62,14,0,5.75,SA,1693884579
162,kirensk,57.7853,108.1119,63.9,46,48,6.11,RU,1693884580
163,queenstown,-31.8976,26.8753,46.99,74,87,1.99,ZA,1693884580
164,gornopravdinsk,60.05,69.9,47.16,75,75,5.37,RU,1693884580
165,bonthe,7.5264,-12.505,76.28,88,100,11.83,SL,1693884580
166,ascension,30.2169,-90.9001,81.07,89,0,3.44,US,1693884581
167,utrik,11.2278,169.8474,83.7,76,65,12.26,MH,1693884581
168,dakhla,23.6848,-15.958,69.13,86,48,16.42,EH,1693884581
169,nogliki,51.8333,143.1667,59.76,88,97,10.07,RU,1693884579
170,aasiaat,68.7098,-52.8699,37.2,95,100,6.33,GL,1693884582
171,trinidad,-14.8333,-64.9,83.64,48,100,1.3,BO,1693884582
172,ponnampet,12.15,75.9333,68.59,91,100,4.94,IN,1693884582
173,tura,25.5198,90.2201,85.53,74,91,0.74,IN,1693884582
174,mont-dore,-22.2833,166.5833,80.58,99,41,8.3,NC,1693884583
175,wailua homesteads,22.0669,-159.378,81.39,78,20,6.91,US,1693884583
176,lewistown,40.5992,-77.5714,76.15,83,0,3.22,US,1693884064
177,bechar,31.6167,-2.2167,75.52,16,0,4.61,DZ,1693884580
178,novodvinsk,64.4165,40.8122,53.35,91,100,8.12,RU,1693884584
179,dunedin,-45.8742,170.5036,53.8,73,15,8.01,NZ,1693884584
180,cabo san lucas,22.8909,-109.9124,88.61,80,20,7.0,MX,1693884584
181,tarko-sale,64.9225,77.785,43.0,72,62,3.0,RU,1693884585
182,kudahuvadhoo,2.6708,72.8944,81.91,75,100,9.35,MV,1693884585
183,abadeh,31.1608,52.6506,72.12,18,21,1.19,IR,1693884585
184,zhezqazghan,47.7833,67.7667,52.38,87,75,6.71,KZ,1693884585
185,farah,32.5,62.5,74.66,19,0,5.08,AF,1693884585
186,nuuk,64.1835,-51.7216,45.21,93,100,29.93,GL,1693884585
187,daulatpur,26.5015,67.9706,86.29,61,0,3.94,PK,1693884586
188,biltine,14.5333,20.9167,82.62,56,46,5.66,TD,1693884586
189,sinjai,-5.1241,120.253,85.06,52,44,9.4,ID,1693884586
190,oranjemund,-28.55,16.4333,53.56,75,100,11.88,NA,1693884586
191,sao jose da coroa grande,-8.8978,-35.1478,74.43,86,3,10.31,BR,1693884587
192,whitehorse,60.7161,-135.0538,54.37,65,75,5.75,CA,1693884587
193,arraial do cabo,-22.9661,-42.0278,71.76,89,100,24.43,BR,1693884587
194,soe,-9.8607,124.284,83.55,24,57,8.1,ID,1693884587
195,mankono,8.0586,-6.1897,69.35,97,68,5.14,CI,1693884587
196,eforie sud,44.0229,28.6494,67.01,64,34,23.64,RO,1693884588
197,enriquillo,17.9,-71.2333,80.69,86,94,6.69,DO,1693884588
198,kotel'nikovo,47.6317,43.1461,70.84,37,100,11.83,RU,1693884589
199,ha giang,22.8333,104.9833,89.67,57,54,2.13,VN,1693884589
200,polyarnyy,69.1989,33.4478,50.31,88,100,17.18,RU,1693884589
201,labasa,-16.4167,179.3833,82.22,61,39,10.33,FJ,1693884589
202,west island,-12.1568,96.8225,80.58,69,99,13.8,CC,1693884590
203,lae,-6.7221,146.9847,83.08,64,72,7.65,PG,1693884590
204,turpan,42.9333,89.1667,87.75,27,80,4.68,CN,1693884590
205,aras-asan,8.8908,126.3033,87.1,66,92,6.58,PH,1693884590
206,juneau,58.3019,-134.4197,53.6,95,100,3.44,US,1693884303
207,beloyarskiy,63.7119,66.6722,46.99,59,59,1.99,RU,1693884591
208,carutapera,-1.195,-46.02,78.22,83,10,6.98,BR,1693884591
209,prince rupert,54.3161,-130.3201,53.29,95,100,10.36,CA,1693884511
210,collie,-33.3667,116.15,59.85,75,60,13.24,AU,1693884591
211,carnarvon,-24.8667,113.6333,68.4,52,4,14.09,AU,1693884592
212,bairnsdale,-37.8333,147.6167,55.42,61,54,14.29,AU,1693884592
213,caleta de carquin,-11.0925,-77.6267,65.62,83,60,12.62,PE,1693884592
214,olvera,36.9584,-5.2489,60.75,69,100,0.67,ES,1693884592
215,labrador city,52.9463,-66.9114,46.31,93,0,3.44,CA,1693884592
216,ushuaia,-54.8,-68.3,33.46,64,75,8.05,AR,1693884435
217,haiku-pauwela,20.9219,-156.3051,82.17,68,40,12.66,US,1693884593
218,mukalla,14.5425,49.1242,85.01,78,89,4.52,YE,1693884593
219,ilulissat,69.2167,-51.1,41.02,87,100,3.44,GL,1693884508
220,coquimbo,-29.9533,-71.3436,56.93,76,0,5.75,CL,1693884593
221,gurupa,-1.405,-51.64,75.76,83,32,3.8,BR,1693884593
222,hailar,49.2,119.7,66.58,55,75,4.23,CN,1693884594
223,lebu,-37.6167,-73.65,47.43,80,100,11.59,CL,1693884594
224,kayangel,8.0823,134.7173,80.76,77,100,2.73,PW,1693884594
225,astara,38.5,48.6667,63.3,76,0,2.06,AZ,1693884595
226,quartu sant'elena,39.2419,9.1839,76.91,38,0,6.91,IT,1693884595
227,cockburn town,21.4612,-71.1419,85.05,78,38,10.83,TC,1693884595
228,waiuku,-37.25,174.75,61.25,93,100,9.64,NZ,1693884595
229,port saint john's,-31.6229,29.5448,62.85,88,100,5.44,ZA,1693884596
230,olinda,-8.0089,-34.8553,80.33,74,40,9.22,BR,1693884596
231,nishinoomote,30.7333,131.0,82.96,89,40,6.91,JP,1693884596
232,kashgar,39.4547,75.9797,74.41,18,20,8.95,CN,1693884596
233,ambon,-3.6954,128.1814,84.34,70,40,6.91,ID,1693884424
234,east london,-33.0153,27.9116,61.77,87,98,5.3,ZA,1693884597
235,flying fish cove,-10.4217,105.6791,80.28,69,40,17.27,CX,1693884598
236,sao gabriel da cachoeira,-0.1303,-67.0892,75.09,65,1,2.35,BR,1693884598
237,greenville,35.6127,-77.3663,78.13,93,0,0.0,US,1693884485
238,namtsy,62.7161,129.6658,58.93,39,76,2.33,RU,1693884599
239,jaisalmer,26.9147,70.9181,81.7,61,0,11.34,IN,1693884599
240,iskateley,67.6803,53.1512,54.36,91,34,12.12,RU,1693884599
241,bath,51.3779,-2.3591,64.38,83,2,6.91,GB,1693884259
242,bubaque,11.2833,-15.8333,78.64,78,100,7.81,GW,1693884600
243,sandnessjoen,66.0217,12.6316,48.72,65,100,21.25,NO,1693884600
244,astaneh-ye ashrafiyeh,37.2596,49.9444,75.13,76,43,1.01,IR,1693884601
245,wamba,8.9333,8.6,66.79,98,28,1.57,NG,1693884601
246,shalkar,47.8288,59.6258,68.23,47,12,8.48,KZ,1693884602
247,embi,48.8264,58.1442,67.33,45,20,8.79,KZ,1693884603
248,kununurra,-15.7667,128.7333,91.38,31,97,6.91,AU,1693884604
249,gadzhiyevo,69.2551,33.3362,49.68,90,100,16.64,RU,1693884604
250,dudinka,69.4058,86.1778,46.27,62,12,9.73,RU,1693884605
251,nouadhibou,20.931,-17.0347,73.38,68,84,17.27,MR,1693884606
252,yarmouth,41.7057,-70.2286,71.02,91,0,4.0,US,1693884606
253,tefe,-3.3542,-64.7114,75.0,46,3,2.71,BR,1693884607
254,nizhnyaya tavda,57.6731,66.1725,50.94,62,99,7.56,RU,1693884607
255,nago,26.5881,127.9761,88.23,69,100,6.11,JP,1693884607
256,inhambane,-23.865,35.3833,66.18,94,0,0.0,MZ,1693884608
257,island harbour,50.724,-1.2758,64.92,90,0,1.01,GB,1693884608
258,matthew town,20.95,-73.6667,83.3,78,32,7.49,BS,1693884608
259,kingston,17.997,-76.7936,86.95,82,20,12.66,JM,1693884609
260,felipe carrillo puerto,19.5833,-88.05,76.21,93,13,2.66,MX,1693884609
261,tayu,-6.5397,111.0518,85.75,50,22,9.66,ID,1693884609
262,constantia,44.1833,28.65,66.88,60,37,23.29,RO,1693884609
263,undurkhaan,47.3194,110.6556,79.39,36,5,3.98,MN,1693884609
264,port lincoln,-34.7333,135.8667,57.47,53,96,11.88,AU,1693884610
265,abbeville,50.1,1.8333,64.36,75,80,7.81,FR,1693884362
266,atbasar,51.8,68.3333,50.32,59,12,12.35,KZ,1693884610
267,ancud,-41.8697,-73.8203,39.81,90,84,5.3,CL,1693884610
268,ghanzi,-21.5667,21.7833,61.95,21,2,4.09,BW,1693884610
269,uturoa,-16.7333,-151.4333,77.41,82,55,22.24,PF,1693884610
270,jericho,31.8667,35.45,83.61,46,0,5.82,PS,1693884610
271,tegina,10.0706,6.1906,68.5,98,87,4.03,NG,1693884611
272,mangrol,21.1167,70.1167,83.71,68,75,7.2,IN,1693884611
273,wynyard,-41.0,145.7167,43.99,82,64,14.72,AU,1693884342
274,east ballina,-28.8667,153.5833,84.79,48,1,13.24,AU,1693884611
275,talnakh,69.4865,88.3972,46.51,60,27,2.93,RU,1693884611
276,udachny,66.4167,112.4,37.54,65,96,17.63,RU,1693884611
277,nadym,65.5333,72.5167,50.23,55,31,4.68,RU,1693884612
278,yermentau,51.6214,73.1069,48.65,84,100,10.07,KZ,1693884612
279,labytnangi,66.6572,66.4183,53.19,62,31,7.0,RU,1693884612
280,san luis potosi,22.5,-100.5,64.76,86,8,7.36,MX,1693884480
281,sos'va,59.1766,61.8558,50.49,66,0,5.12,RU,1693884613
282,huarmey,-10.0681,-78.1522,66.85,83,85,11.54,PE,1693884613
283,afaahiti,-17.75,-149.2833,76.87,90,100,20.6,PF,1693884613
284,pirallahi,40.4723,50.333,75.34,60,0,5.01,AZ,1693884613
285,guaruja,-23.9931,-46.2564,80.89,26,100,3.0,BR,1693884613
286,pandan,14.0453,124.1694,87.31,69,99,3.06,PH,1693884613
287,alofi,-19.0595,-169.9187,80.49,61,75,8.05,NU,1693884614
288,sinabang,2.4803,96.3801,77.09,92,100,4.03,ID,1693884614
289,riosucio,5.4216,-75.7032,57.0,97,87,1.07,CO,1693884614
290,langsa,4.4683,97.9683,83.41,80,100,4.85,ID,1693884614
291,tafuna,-14.3358,-170.72,85.95,74,40,14.97,AS,1693884614
292,urangan,-25.3,152.9,70.74,72,0,14.2,AU,1693884615
293,oruro,-17.9833,-67.15,41.97,58,88,1.99,BO,1693884615
294,hadibu,12.65,54.0333,79.61,81,58,12.01,YE,1693884615
295,namibe,-15.1961,12.1522,60.22,87,4,4.43,AO,1693884615
296,vosendorf,48.1211,16.3404,58.59,84,0,1.14,AT,1693884616
297,northam,51.0333,-4.2167,64.26,86,0,12.19,GB,1693884616
298,novo aripuana,-5.1206,-60.3797,73.99,43,2,2.08,BR,1693884616
299,arawa,-6.2132,155.5367,85.1,73,7,5.66,PG,1693884616
300,punta alta,-38.8759,-62.0736,41.07,74,86,8.9,AR,1693884616
301,idri,27.5,13.2667,76.77,39,3,4.54,LY,1693884616
302,gorontalo,0.5412,123.0595,87.06,60,98,10.74,ID,1693884617
303,harstad,68.799,16.5293,49.39,91,65,18.99,NO,1693884617
304,mogilno,52.6581,17.9558,61.2,78,6,5.23,PL,1693884617
305,mawlaik,23.6333,94.4167,93.56,54,0,0.83,MM,1693884617
306,belel,7.05,14.4333,59.94,99,100,2.82,CM,1693884617
307,mount pleasant,32.7941,-79.8626,78.98,87,0,3.0,US,1693884594
308,chirilagua,13.2203,-88.1386,73.08,95,64,3.18,SV,1693884618
309,howrah,22.5892,88.3103,77.0,94,100,0.0,IN,1693884618
310,chegdomyn,51.1167,133.0167,53.67,85,100,1.36,RU,1693884619
311,grand-bourg,15.8835,-61.3148,78.75,68,1,13.73,GP,1693884619
312,daru,-9.0763,143.2092,80.35,70,93,12.88,PG,1693884619
313,greymouth,-42.4667,171.2,54.12,91,100,6.29,NZ,1693884619
314,nagqu,31.5,92.0,54.34,44,9,7.31,CN,1693884619
315,igarka,67.4667,86.5833,47.75,63,10,8.66,RU,1693884619
316,idfu,24.9803,32.8747,84.04,28,0,6.69,EG,1693884620
317,touros,-5.1989,-35.4608,75.81,83,17,15.23,BR,1693884620
318,grantsville,40.5999,-112.4644,63.09,73,40,4.0,US,1693884620
319,posto fiscal rolim de moura,-13.0833,-62.2667,85.57,38,98,0.49,BR,1693884621
320,taltal,-25.4,-70.4833,63.34,56,16,2.04,CL,1693884620
321,awjilah,29.1081,21.2869,72.84,75,11,5.99,LY,1693884621
322,vernon,50.2581,-119.2691,69.75,56,71,1.14,CA,1693884369
323,aksu,41.1231,80.2644,76.93,19,14,0.34,CN,1693884621
324,nabire,-3.3667,135.4833,82.92,81,26,3.18,ID,1693884621
325,melekeok village,7.4957,134.6367,82.96,78,75,10.36,PW,1693884622
326,broome,42.2506,-75.833,74.35,86,0,1.01,US,1693884622
327,faya-largeau,17.9257,19.1043,89.85,15,1,4.36,TD,1693884622
328,abu jibeha,11.4562,31.2285,70.57,89,100,2.15,SD,1693884622
329,san pedro,14.35,121.0167,85.32,82,75,16.11,PH,1693884622
330,sharm el-sheikh,27.8518,34.305,84.79,46,0,8.34,EG,1693884622
331,fort-shevchenko,44.5086,50.263,76.68,36,6,16.93,KZ,1693884623
332,ayutla,20.1167,-104.3333,66.97,88,100,2.26,MX,1693884623
333,tanumah,27.1,44.1333,84.67,10,0,2.1,SA,1693884623
334,sitka,57.0531,-135.33,55.29,82,100,6.91,US,1693884581
335,remire-montjoly,4.9167,-52.2667,75.24,94,0,0.0,GF,1693884624
336,kone,-21.0595,164.8658,78.28,68,49,5.53,NC,1693884624
337,la passe,45.5549,-0.8967,71.83,50,1,6.96,FR,1693884624
338,taksimo,56.3444,114.8794,64.54,41,77,0.36,RU,1693884624
339,paola,39.3599,16.0396,61.92,70,10,9.19,IT,1693884625
340,nova olinda do norte,-3.8881,-59.0942,75.9,39,1,2.42,BR,1693884625
341,fortuna,40.5982,-124.1573,61.14,90,40,9.22,US,1693884625
342,dwarka,22.2394,68.9678,82.27,72,91,12.3,IN,1693884625
343,port moresby,-9.4431,147.1797,85.42,66,75,11.5,PG,1693884625
344,aykhal,66.0,111.5,34.5,83,97,15.08,RU,1693884625
345,rio grande,-32.035,-52.0986,50.95,85,100,23.24,BR,1693884626
346,nieuw amsterdam,5.8833,-55.0833,79.14,90,41,8.57,SR,1693884626
347,nantucket,41.2835,-70.0995,69.85,88,0,0.0,US,1693884626
348,kiunga,-6.1219,141.2906,84.49,62,98,4.03,PG,1693884626
349,mount pearl,47.5166,-52.7813,59.32,96,75,6.91,CA,1693884626
350,weno,7.4515,151.8468,84.15,84,100,6.91,FM,1693884627
351,san andres,12.5847,-81.7006,84.22,79,20,4.61,CO,1693884627
352,shirgaon,19.7,72.7,82.06,74,20,4.68,IN,1693884627
353,luderitz,-26.6481,15.1594,52.61,77,100,21.99,NA,1693884627
354,alegrete,-29.7831,-55.7919,49.26,91,28,10.13,BR,1693884627
355,rio rancho,35.2334,-106.6645,80.74,27,0,7.0,US,1693884433
356,axim,4.8699,-2.2405,75.36,89,100,7.9,GH,1693884628
357,beira,-19.8436,34.8389,68.09,100,20,4.61,MZ,1693884628
358,gryazi,52.4966,39.9359,61.9,74,94,5.61,RU,1693884628
359,linxia chengguanzhen,35.6003,103.2064,75.94,48,93,4.05,CN,1693884628
360,winnemucca,40.973,-117.7357,60.85,63,0,0.0,US,1693884517
361,broken hill,-31.95,141.4333,65.1,31,1,10.13,AU,1693884628
362,baiquan,47.5833,126.0833,67.3,56,3,5.08,CN,1693884629
363,sinop,41.7711,34.8709,63.0,78,82,3.49,TR,1693884629
364,caxito,-8.5785,13.6643,70.47,92,59,1.68,AO,1693884629
365,semey,50.4111,80.2275,59.22,72,100,13.42,KZ,1693884629
366,tatsinskiy,48.1968,41.2756,70.66,39,100,11.72,RU,1693884629
367,tutong,4.8,114.65,91.49,63,65,4.29,BN,1693884629
368,phan rang-thap cham,11.5667,108.9833,94.35,50,97,10.92,VN,1693884630
369,ugoofaaru,5.6667,73.0,82.17,76,100,14.16,MV,1693884630
370,ivdel',60.6911,60.4206,51.67,62,25,2.75,RU,1693884630
371,galle,6.0367,80.217,80.13,83,98,14.54,LK,1693884441
372,samarinda,-0.5,117.15,92.03,49,82,3.09,ID,1693884581
373,jackson,42.4165,-122.8345,68.4,56,0,3.0,US,1693884031
374,zalanga,10.6143,10.1765,67.26,90,70,4.59,NG,1693884630
375,tubarjal,30.4999,38.216,82.94,34,93,8.39,SA,1693884631
376,pokachi,61.7198,75.3683,54.27,57,52,16.28,RU,1693884631
377,esmeraldas,-19.7625,-44.3139,70.74,76,87,4.61,BR,1693884631
378,dong ha,16.8163,107.1003,91.22,58,49,6.31,VN,1693884631
379,nyakahanga,-1.6033,31.1414,62.02,73,73,1.79,TZ,1693884631
380,qulsary,46.9531,54.0198,74.01,33,100,6.33,KZ,1693884631
381,yuzhno-kurilsk,44.0306,145.8556,65.28,99,100,5.44,RU,1693884632
382,horta,38.5333,-28.6333,71.02,70,98,13.0,PT,1693884632
383,santa terezinha,-29.9002,-50.0904,58.26,93,100,22.1,BR,1693884632
384,seelow,52.5339,14.3813,55.22,82,4,6.13,DE,1693884632
385,reyes,-14.3167,-67.3833,81.59,60,100,0.78,BO,1693884632
386,cidreira,-30.1811,-50.2056,58.12,91,100,25.14,BR,1693884633
387,luebo,-5.35,21.4167,69.8,95,100,1.54,CD,1693884633
388,selfoss,63.9331,-20.9971,47.05,87,99,6.24,IS,1693884633
389,cannonvale,-20.2833,148.7,74.59,64,1,7.25,AU,1693884633
390,ji'an,27.1172,114.9793,75.16,93,99,7.34,CN,1693884633
391,corinto,37.9407,22.9573,66.88,89,97,4.25,GR,1693884633
392,fort bragg,35.139,-79.006,78.91,84,0,1.01,US,1693884634
393,casino,-28.8667,153.05,84.56,24,1,13.51,AU,1693884634
394,gifford,27.6753,-80.4092,82.98,78,0,4.61,US,1693884634
395,svetlyy,54.675,20.1347,60.85,91,42,9.01,RU,1693884634
396,rajgarh,28.6333,75.3833,94.28,30,0,11.77,IN,1693884634
397,qui nhon,13.7667,109.2333,90.0,61,98,7.85,VN,1693884635
398,greeley,40.4233,-104.7091,75.0,37,0,20.71,US,1693884589
399,mangalia,43.8,28.5833,71.89,65,78,20.56,RO,1693884635
400,happy valley-goose bay,53.3168,-60.3315,55.71,76,75,4.61,CA,1693884611
401,bamboo flat,11.7,92.7167,80.69,94,100,5.75,IN,1693884635
402,puerto san jose,13.9256,-90.8244,77.76,86,95,5.44,GT,1693884635
403,lake mohawk,41.0184,-74.6602,77.45,84,36,1.99,US,1693884636
404,abaete,-19.16,-45.4458,76.96,55,41,3.04,BR,1693884636
405,elverum,60.8819,11.5623,54.77,94,16,3.31,NO,1693884636
406,bereznik,62.8551,42.7072,53.94,93,39,4.85,RU,1693884636
407,naze,28.3667,129.4833,83.32,73,42,2.73,JP,1693884636
408,mili,6.0815,171.735,83.89,75,65,12.84,MH,1693884637
409,indore,22.7179,75.8333,78.98,83,20,8.05,IN,1693884637
410,mar del plata,-38.0023,-57.5575,45.95,68,75,9.22,AR,1693884637
411,guerrero negro,27.9769,-114.0611,69.28,78,0,18.61,MX,1693884637
412,plettenberg bay,-34.0527,23.3716,52.02,87,100,11.1,ZA,1693884638
413,chom bueng,13.62,99.5917,90.01,67,99,9.62,TH,1693884638
414,rovnoye,50.7765,46.0509,65.35,49,100,4.72,RU,1693884638
415,barra de santo antonio,-9.4047,-35.5072,74.48,86,19,10.8,BR,1693884638
416,pudasjarvi,65.3833,26.9167,49.84,87,75,7.74,FI,1693884638
417,waycross,31.2136,-82.354,75.45,90,0,4.61,US,1693884496
418,de queen,34.0379,-94.3413,80.73,73,0,4.61,US,1693884639
419,morden,49.1919,-98.1014,72.09,78,0,6.91,CA,1693884404
420,vandenberg village,34.7083,-120.4677,65.16,88,100,9.22,US,1693884639
421,menongue,-14.6585,17.691,55.89,24,0,2.86,AO,1693884639
422,porto novo,6.4965,2.6036,74.25,96,100,7.67,BJ,1693884639
423,springbok,-29.6643,17.8865,39.78,93,100,13.8,ZA,1693884496
424,joroinen,62.1782,27.8317,58.98,91,100,9.73,FI,1693884519
425,monrovia,6.3005,-10.7969,74.97,86,79,12.01,LR,1693884640
426,shalqar,47.8333,59.6,68.25,47,13,8.41,KZ,1693884640
427,usogorsk,63.4106,48.6872,58.21,83,29,5.64,RU,1693884640
428,nar'yan-mar,67.6713,53.087,57.25,89,53,12.5,RU,1693884640
429,kapa'a,22.0752,-159.319,82.72,78,20,6.91,US,1693884640
430,egilsstadir,65.2653,-14.3948,48.11,61,40,4.61,IS,1693884641
431,ulladulla,-35.35,150.4667,66.78,31,35,5.79,AU,1693884641
432,lamu,-2.2717,40.902,77.22,84,9,13.15,KE,1693884641
433,san marcos yachihuacaltepec,19.3242,-99.6794,58.32,72,100,2.3,MX,1693884641
434,santa cruz,-17.8,-63.1667,69.26,56,75,14.97,BO,1693884641
435,watampone,-4.5386,120.3279,84.79,57,63,11.83,ID,1693884642
436,el playon,7.4713,-73.2031,77.27,94,91,4.65,CO,1693884642
437,kouango,4.9934,19.9619,69.4,98,100,2.08,CF,1693884643
438,toguchin,55.2353,84.3858,64.92,53,17,10.98,RU,1693884643
439,san nicolas,18.1725,120.5953,84.11,84,100,11.5,PH,1693884607
440,aswan,24.0934,32.907,84.25,31,3,7.74,EG,1693884644
441,kiiminki,65.1314,25.7974,55.65,100,77,11.05,FI,1693884644
442,tommot,58.9564,126.2925,61.7,41,24,3.76,RU,1693884644
443,harnosand,62.6323,17.9379,55.42,76,74,6.02,SE,1693884644
444,conceicao da barra,-18.5933,-39.7322,72.88,93,13,7.96,BR,1693884645
445,archangelos,36.2149,28.1149,78.31,80,92,5.37,GR,1693884645
446,taulaga,-11.0553,-171.0883,82.33,78,67,18.59,AS,1693884645
447,gannan,47.9147,123.5031,70.79,68,38,10.11,CN,1693884645
448,massaguet,12.4755,15.4365,74.32,73,82,9.42,TD,1693884645
449,bogandinskiy,56.8937,65.8938,48.47,65,94,8.81,RU,1693884645
450,sligo,54.2697,-8.4694,63.68,93,6,4.16,IE,1693884646
451,shar'ya,58.3686,45.5144,52.36,96,1,3.85,RU,1693884515
452,mokhsogollokh,61.4681,128.9203,62.83,35,48,2.57,RU,1693884646
453,la quiaca,-22.1024,-65.593,41.88,13,3,3.49,AR,1693884646
454,chibougamau,49.9168,-74.3659,58.62,82,0,2.3,CA,1693884646
455,rosario del tala,-32.3029,-59.1455,45.99,67,82,6.93,AR,1693884647
456,al kharijah,25.4514,30.5464,78.66,35,0,2.21,EG,1693884647
457,edd,13.9297,41.6925,90.61,66,39,6.38,ER,1693884647
458,armacao de buzios,-22.7469,-41.8817,73.45,89,99,20.76,BR,1693884647
459,miandrivazo,-19.5167,45.4667,74.86,53,0,2.91,MG,1693884647
460,bhawanipatna,19.9,83.1667,77.77,87,94,2.37,IN,1693884485
461,brandon,27.9378,-82.2859,83.14,78,0,9.22,US,1693884348
462,keflavik,64.0049,-22.5624,48.63,81,75,11.5,IS,1693884648
463,snyder,32.7179,-100.9176,90.0,18,0,12.66,US,1693884648
464,chagoda,59.164,35.3285,52.79,84,98,5.28,RU,1693884648
465,cestos city,5.46,-9.5828,76.39,85,59,8.95,LR,1693884648
466,la'ie,21.6477,-157.9253,85.96,67,31,4.0,US,1693884649
467,port shepstone,-30.7414,30.455,65.98,86,100,7.47,ZA,1693884649
468,alaghsas,17.0187,8.0168,82.56,47,39,9.69,NE,1693884649
469,milan,45.4643,9.1895,72.99,61,20,6.91,IT,1693884506
470,manistee,44.2445,-86.3242,77.02,83,0,3.44,US,1693884649
471,coxim,-18.5067,-54.76,82.58,56,92,3.11,BR,1693884650
472,tual,-5.6667,132.75,77.47,81,64,17.43,ID,1693884650
473,matale,7.4721,80.6234,77.79,78,100,8.43,LK,1693884650
474,salem,11.65,78.1667,79.0,83,40,2.3,IN,1693884651
475,navalmoral de la mata,39.8916,-5.5406,64.24,71,8,1.83,ES,1693884651
476,srivardhan,18.0333,73.0167,81.39,76,29,4.83,IN,1693884651
477,mermoz boabab,14.7065,-17.4758,80.38,83,20,2.3,SN,1693884651
478,benguela,-12.5763,13.4055,70.77,82,98,0.47,AO,1693884651
479,butha-buthe,-28.8333,28.5,43.07,36,38,4.07,LS,1693884652
480,lazaro cardenas,17.9583,-102.2,80.98,79,98,2.8,MX,1693884543
481,yueyang,29.3333,113.0919,86.76,59,5,12.55,CN,1693884652
482,zaozersk,69.4005,32.4476,49.53,91,100,18.72,RU,1693884652
483,bishkul,54.7803,69.1033,48.54,93,100,8.95,KZ,1693884652
484,brisas de zicatela,15.8369,-97.0419,77.52,73,100,0.0,MX,1693884652
485,suoyarvi,62.0833,32.35,56.93,88,100,12.17,RU,1693884653
486,mazagao,-0.115,-51.2894,82.45,86,41,3.69,BR,1693884653
487,ha tien,10.3833,104.4833,80.8,84,100,14.45,VN,1693884653
488,san juan de uraba,8.7592,-76.5297,78.01,86,100,2.62,CO,1693884653
489,sabang,5.8933,95.3214,77.72,90,100,17.74,ID,1693884653
490,eyl,7.9803,49.8164,80.78,58,83,24.79,SO,1693884653
491,moose jaw,50.4001,-105.5344,53.85,87,72,8.05,CA,1693884653
492,nadi,-17.8,177.4167,86.0,62,20,16.11,FJ,1693884654
493,baharly,38.4362,57.4316,78.01,22,0,11.83,TM,1693884654
494,cold lake,54.4502,-110.2017,46.35,81,100,6.91,CA,1693884654
495,petrolina,-9.3986,-40.5008,80.65,47,0,12.66,BR,1693884654
496,najran,17.4924,44.1277,72.25,14,20,3.24,SA,1693884655
497,arkhangel'sk,64.5401,40.5433,55.38,86,100,8.59,RU,1693884655
498,tukrah,32.5341,20.5791,76.21,64,49,8.28,LY,1693884655
499,khanty-mansiysk,61.0042,69.0019,46.51,76,0,6.71,RU,1693884655
500,nanga eboko,4.6833,12.3667,67.77,98,98,2.68,CM,1693884655
501,penukonda,14.0833,77.5833,71.98,72,100,10.56,IN,1693884656
502,albertville,34.2676,-86.2089,76.89,79,0,0.0,US,1693884608
503,jianguang,28.1938,115.7836,76.73,90,100,8.21,CN,1693884656
504,los angeles,34.0522,-118.2437,74.03,76,0,9.22,US,1693884091
505,hillvue,-31.1244,150.915,75.11,29,0,16.11,AU,1693884656
506,bozoum,6.3193,16.3799,68.05,97,100,4.25,CF,1693884656
507,suntar,62.1444,117.6319,63.37,35,99,8.16,RU,1693884657
508,praia da vitoria,38.7333,-27.0667,71.85,78,75,21.83,PT,1693884657
509,amfissa,38.525,22.3731,63.52,91,100,6.58,GR,1693884657
510,isla vista,34.4133,-119.861,71.02,79,0,4.61,US,1693884657
511,callao,-12.0667,-77.15,68.72,73,100,16.11,PE,1693884658
512,conception bay south,47.4999,-52.9981,59.74,95,100,7.05,CA,1693884658
513,morococha,-11.5997,-76.1411,37.69,86,93,5.93,PE,1693884658
514,wuwei,37.9281,102.6414,83.52,32,14,7.96,CN,1693884658
515,signal mountain,35.1226,-85.3438,75.4,85,41,1.01,US,1693884659
516,passi,11.15,122.65,89.62,64,71,6.71,PH,1693884659
517,sao miguel do araguaia,-13.275,-50.1628,82.96,34,47,2.46,BR,1693884659
518,geraldton,-28.7667,114.6,68.41,68,75,8.05,AU,1693884429
519,mana,5.6592,-53.7767,78.78,86,97,9.98,GF,1693884660
520,mahina,-17.5065,-149.489,78.57,73,75,4.61,PF,1693884661
521,bel ombre,-4.6167,55.4167,80.44,83,40,13.8,SC,1693884661
522,westport,41.1415,-73.3579,77.86,84,0,0.0,US,1693884662
523,xinghua,32.9392,119.8342,84.38,68,92,7.87,CN,1693884662
524,hounde,11.5,-3.5167,72.25,93,47,4.14,BF,1693884662
525,saint-philippe,-21.3585,55.7679,69.39,80,45,12.24,RE,1693884663
526,santa isabel,-23.3156,-46.2214,81.7,80,98,3.6,BR,1693884663
527,salida,37.7058,-121.0849,76.89,49,0,10.0,US,1693884663
528,jayapura,-2.5333,140.7,92.59,69,21,7.47,ID,1693884663
529,valledupar,10.4631,-73.2532,85.69,70,40,0.0,CO,1693884664
530,amga,60.8953,131.9608,62.87,40,77,1.95,RU,1693884664
531,christchurch,-43.5333,172.6333,56.91,78,75,16.11,NZ,1693884584
532,walvis bay,-22.9575,14.5053,48.09,93,0,1.14,NA,1693884664
533,kenai,60.5544,-151.2583,59.09,86,20,6.91,US,1693884664
534,grand-popo,6.2804,1.8225,74.17,95,100,11.7,BJ,1693884665
535,turabah,21.2141,41.6331,82.2,17,11,5.14,SA,1693884665
536,pingliang,35.5392,106.6861,74.17,54,100,15.12,CN,1693884665
537,agat village,13.3886,144.6585,90.54,74,75,10.36,GU,1693884665
538,bambanglipuro,-7.95,110.2833,83.21,53,33,16.73,ID,1693884666
539,nalut,30.3333,10.85,77.36,35,7,8.14,LY,1693884666
540,partenit,44.578,34.3446,70.38,75,54,11.23,UA,1693884666
541,pacific grove,36.6177,-121.9166,66.2,88,40,8.05,US,1693884477
542,cambria,35.5641,-121.0808,75.94,95,8,4.0,US,1693884643
543,egersund,58.4513,5.9997,60.39,91,43,2.64,NO,1693884667
544,ranau,5.9538,116.6641,85.21,64,42,3.2,MY,1693884667
545,umba,66.6871,34.3429,52.92,90,100,16.98,RU,1693884667
546,naracoorte,-36.9579,140.7383,56.84,47,5,10.65,AU,1693884667
547,kadoma,34.7333,135.5833,94.17,45,20,8.05,JP,1693884668
548,tbeng meanchey,13.8167,104.9667,84.51,79,100,3.69,KH,1693884668
549,cova figueira,14.8905,-24.2934,75.22,84,60,5.19,CV,1693884668
550,ordynskoye,54.3656,81.8994,56.57,84,78,7.36,RU,1693884669
551,mumbwa,-14.9783,27.0619,62.44,47,0,3.96,ZM,1693884669
552,alesund,62.4723,6.1549,54.75,90,100,5.75,NO,1693884670
553,borogontsy,62.6683,131.1683,61.16,39,68,1.72,RU,1693884670
554,grand falls-windsor,48.9332,-55.6649,60.51,86,100,2.35,CA,1693884671
555,morondava,-20.2833,44.2833,69.96,70,0,7.47,MG,1693884671
556,karaton,-6.3424,106.1045,89.62,37,22,3.47,ID,1693884671
557,belle chasse,29.8549,-89.9906,82.38,89,0,3.44,US,1693884671
558,al mazar al janubi,31.0656,35.6961,65.88,70,0,2.77,JO,1693884671
559,trzebiatow,54.0615,15.2648,61.05,86,63,8.1,PL,1693884672
560,sihanoukville,10.6093,103.5296,82.35,83,75,12.66,KH,1693884672
561,kapoeta,4.7717,33.5903,74.8,54,40,3.36,SS,1693884672
562,carolina beach,34.0352,-77.8936,80.02,85,3,9.33,US,1693884673
563,chernyshevskiy,63.0128,112.4714,46.63,85,100,8.1,RU,1693884673
564,el nido,11.1858,119.3956,86.54,68,81,1.95,PH,1693884673
565,bignona,12.8103,-16.2264,73.44,92,100,4.97,SN,1693884673
566,majuro,7.0897,171.3803,89.56,70,40,5.75,MH,1693884674
567,ocean pines,38.3954,-75.1557,79.02,88,0,4.61,US,1693884674
568,port blair,11.6667,92.75,80.64,94,100,5.75,IN,1693884674
569,huruta,8.15,39.35,60.03,85,29,4.79,ET,1693884674
570,kashin,57.3592,37.6081,53.96,80,55,4.83,RU,1693884674
571,salym,60.0625,71.4789,50.0,71,97,8.48,RU,1693884675
572,korla,41.7597,86.1469,78.21,30,94,12.12,CN,1693884675
573,massawa,15.6097,39.45,90.81,66,79,6.44,ER,1693884675
574,slobozia,46.7281,29.7078,62.33,59,5,13.38,MD,1693884675
575,tshikapa,-6.4167,20.8,71.4,90,85,3.96,CD,1693884675
576,chiredzi,-21.05,31.6667,61.03,83,0,2.51,ZW,1693884676
577,salmon arm,50.6998,-119.3024,68.43,77,68,2.3,CA,1693884676
578,celestun,20.8667,-90.4,82.13,79,80,11.68,MX,1693884676
579,whakatane,-37.9585,176.9854,61.52,83,98,11.01,NZ,1693884676
580,sheridan,44.8333,-106.9173,55.78,96,100,20.71,US,1693884677
581,bandar-e lengeh,26.5579,54.8807,91.51,75,4,6.91,IR,1693884677
582,morehead city,34.7229,-76.726,81.01,88,0,9.22,US,1693884627
583,okondja,-0.6549,13.6753,69.96,98,100,2.28,GA,1693884678
584,maintirano,-18.0667,44.0167,74.25,72,0,3.94,MG,1693884678
585,mahanoro,-19.9,48.8,69.31,80,24,2.15,MG,1693884678
586,illizi,26.4833,8.4667,85.8,19,3,4.9,DZ,1693884679
587,hammerfest,70.6634,23.6821,48.65,76,75,20.71,NO,1693884679
588,lensk,60.7253,114.9278,62.6,38,82,9.51,RU,1693884679
589,pacocha,-17.5833,-71.3333,64.18,78,12,1.52,PE,1693884679
